{
	"nodes": [
		{
			"id": "2hsof.0qmn5t",
			"label": "Referència",
			"image": "ImportCSV.png",
			"shape": "circularImage",
			"STAdata": [
				{
					"Province": "Barcelona",
					"River_basin": "Riu Foix",
					"County": "Alt Penedes",
					"Station": "Reservoir of Foix (Castellet i la Gornal)"
				},
				{
					"Province": "Barcelona",
					"River_basin": "Riu Llobregat",
					"County": "Bergueda",
					"Station": "Reservoir of la Baells (Cercs)"
				},
				{
					"Province": "Barcelona",
					"River_basin": "Riu Ter",
					"County": "Osona",
					"Station": "Reservoir of Sau (Vilanova de Sau)"
				},
				{
					"Province": "Girona",
					"River_basin": "Riu Ter",
					"County": "La Selva",
					"Station": "Reservoir of Susqueda (Osor)"
				},
				{
					"Province": "Lleida ",
					"River_basin": "Riu Cardener",
					"County": "Solsones",
					"Station": "Reservoir of la Llosa del Cavall (Nav?s)"
				},
				{
					"Province": "Lleida ",
					"River_basin": "Riu Cardener",
					"County": "Solsones",
					"Station": "Reservoir of Sant Pon? (Clariana de Cardener)"
				},
				{
					"Province": "Tarragona",
					"River_basin": "Riera Riudecanyes",
					"County": "Baix Camp",
					"Station": "Reservoir of Riudecanyes"
				},
				{
					"Province": "Tarragona",
					"River_basin": "Riu Siurana",
					"County": "Priorat",
					"Station": "Reservoir of Siurana (Cornudella de Montsant)"
				}
			],
			"STAdataAttributes": {
				"Province": {
					"type": "string"
				},
				"River_basin": {
					"type": "string"
				},
				"County": {
					"type": "string"
				},
				"Station": {
					"type": "string"
				}
			},
			"x": 55,
			"y": -106
		},
		{
			"id": "3c90g.g7h135g",
			"label": "Thematic quality",
			"image": "thematicQuality.png",
			"shape": "circularImage",
			"x": -28,
			"y": -27
		},
		{
			"id": "43lno.1mof62",
			"label": "EmbassamentsPerEvaluar",
			"image": "ImportCSV.png",
			"shape": "circularImage",
			"STAdata": [
				{
					"Day": "2024-12-31T00:00:00.000",
					"Station": "Reservoir of Darnius Boadella (Darnius)",
					"Absolute_level": 136.33,
					"Percentage_volume_stored": 17.7,
					"volume_stored": 10.81,
					"County": "Alt Empordà",
					"River_basin": "Riu Muga",
					"Province": "Girona",
					"lat": 42.3461727,
					"long": 2.7714115,
					"Group": "XX",
					"Uncertainty": 0.0039407063664609575,
					"MeanLong": 42.3466727
				},
				{
					"Day": "2024-12-31T00:00:00.000",
					"Station": "Reservoir of la Llosa del Cavall (Navàs)",
					"Absolute_level": 780.81,
					"Percentage_volume_stored": 35.2,
					"volume_stored": 28.18,
					"County": "Solsonès",
					"River_basin": "Riu Cardener",
					"Province": "Lleida",
					"lat": 42.1189975,
					"long": 1.5883915,
					"Group": "YY",
					"Uncertainty": 0.0003628590176170624,
					"MeanLong": 42.118747500000005
				},
				{
					"Day": "2024-12-31T00:00:00.000",
					"Station": "Reservoir of Siurana (Cornudella de Montsant)",
					"Absolute_level": 460.17,
					"Percentage_volume_stored": 9.7,
					"volume_stored": 1.18,
					"County": "Priorat",
					"River_basin": "Riu Siurana",
					"Province": "Tarragona",
					"lat": 41.254525,
					"long": 0.9128953,
					"Group": "ZZ",
					"Uncertainty": 0.0003902990306592777,
					"MeanLong": 41.254475
				},
				{
					"Day": "2024-12-31T00:00:00.000",
					"Station": "Reservoir of Susqueda (Osor)",
					"Absolute_level": 316.23,
					"Percentage_volume_stored": 36.6,
					"volume_stored": 85.21,
					"County": "La Selva",
					"River_basin": "Riu Ter",
					"Province": "Girona",
					"lat": 41.9787375,
					"long": 2.4528494,
					"Group": "AA",
					"Uncertainty": 0.00010341394705034961,
					"MeanLong": 41.978719166666664
				},
				{
					"Day": "2025-01-01T00:00:00.000",
					"Station": "Reservoir of Darnius Boadella (Darnius)",
					"Absolute_level": 136.32,
					"Percentage_volume_stored": 17.7,
					"volume_stored": 10.8,
					"County": "Alt Empordà",
					"River_basin": "Riu Muga",
					"Province": "Girona",
					"lat": 42.3471727,
					"long": 2.7714115,
					"Group": "XX",
					"Uncertainty": 0.0039407063664609575,
					"MeanLong": 42.3466727
				},
				{
					"Day": "2025-01-01T00:00:00.000",
					"Station": "Reservoir of Foix (Castellet i la Gornal)",
					"Absolute_level": 100.27,
					"Percentage_volume_stored": 96,
					"volume_stored": 3.59,
					"County": "Alt Penedès",
					"River_basin": "Riu Foix",
					"Province": "Barcelona",
					"lat": 41.2558333,
					"long": 1.6496473,
					"Group": "BB",
					"Uncertainty": 0.0001596997182217202,
					"MeanLong": 41.2558573
				},
				{
					"Day": "2025-01-01T00:00:00.000",
					"Station": "Reservoir of la Baells (Cercs)",
					"Absolute_level": 615.62,
					"Percentage_volume_stored": 59.3,
					"volume_stored": 64.86,
					"County": "Berguedà",
					"River_basin": "Riu Llobregat",
					"Province": "Barcelona",
					"lat": 42.1488357,
					"long": 1.8544644,
					"Group": "CC",
					"Uncertainty": 0.00008997777503318473,
					"MeanLong": 42.1488177
				},
				{
					"Day": "2025-01-01T00:00:00.000",
					"Station": "Reservoir of la Llosa del Cavall (Navàs)",
					"Absolute_level": 780.79,
					"Percentage_volume_stored": 35.2,
					"volume_stored": 28.16,
					"County": "Solsonès",
					"River_basin": "Riu Cardener",
					"Province": "Lleida",
					"lat": 42.1179975,
					"long": 1.5883915,
					"Group": "YY",
					"Uncertainty": 0.0003628590176170624,
					"MeanLong": 42.118747500000005
				},
				{
					"Day": "2025-01-01T00:00:00.000",
					"Station": "Reservoir of Riudecanyes",
					"Absolute_level": 205.19,
					"Percentage_volume_stored": 23.2,
					"volume_stored": 1.24,
					"County": "Baix Camp",
					"River_basin": "Riera Riudecanyes",
					"Province": "Tarragona",
					"lat": 41.1376002,
					"long": 0.9312787,
					"Group": "DD",
					"Uncertainty": 0.000019798989873514532,
					"MeanLong": 41.1376182
				},
				{
					"Day": "2025-01-01T00:00:00.000",
					"Station": "Reservoir of Sant Ponç (Clariana de Cardener)",
					"Absolute_level": 519.76,
					"Percentage_volume_stored": 50.7,
					"volume_stored": 12.35,
					"County": "Solsonàs",
					"River_basin": "Riu Cardener",
					"Province": "Lleida",
					"lat": 41.982852,
					"long": 1.570083,
					"Group": "EE",
					"Uncertainty": 0.000001788854381058258,
					"MeanLong": 41.982853399999996
				},
				{
					"Day": "2025-01-01T00:00:00.000",
					"Station": "Reservoir of Sau (Vilanova de Sau)",
					"Absolute_level": 387.81,
					"Percentage_volume_stored": 15.6,
					"volume_stored": 25.76,
					"County": "Osona",
					"River_basin": "Riu Ter",
					"Province": "Barcelona",
					"lat": 41.9764571,
					"long": 2.3690189,
					"Group": "FF",
					"Uncertainty": 0.000008337865434244848,
					"MeanLong": 41.97645630000001
				},
				{
					"Day": "2025-01-01T00:00:00.000",
					"Station": "Reservoir of Siurana (Cornudella de Montsant)",
					"Absolute_level": 460.17,
					"Percentage_volume_stored": 9.7,
					"volume_stored": 1.18,
					"County": "Priorat",
					"River_basin": "Riu Siurana",
					"Province": "Tarragona",
					"lat": 41.254525,
					"long": 0.9118953,
					"Group": "ZZ",
					"Uncertainty": 0.0003902990306592777,
					"MeanLong": 41.254475
				},
				{
					"Day": "2025-01-01T00:00:00.000",
					"Station": "Reservoir of Susqueda (Osor)",
					"Absolute_level": 316.13,
					"Percentage_volume_stored": 36.5,
					"volume_stored": 84.95,
					"County": "La Selva",
					"River_basin": "Riu Ter",
					"Province": "Girona",
					"lat": 41.9786375,
					"long": 2.4528494,
					"Group": "AA",
					"Uncertainty": 0.00010341394705034961,
					"MeanLong": 41.978719166666664
				},
				{
					"Day": "2025-01-02T00:00:00.000",
					"Station": "Reservoir of Darnius Boadella (Darnius)",
					"Absolute_level": 136.32,
					"Percentage_volume_stored": 17.7,
					"volume_stored": 10.8,
					"County": "Alt Empordà",
					"River_basin": "Riu Muga",
					"Province": "Girona",
					"lat": 42.3491727,
					"long": 2.7714115,
					"Group": "XX",
					"Uncertainty": 0.0039407063664609575,
					"MeanLong": 42.3466727
				},
				{
					"Day": "2025-01-02T00:00:00.000",
					"Station": "Reservoir of Foix (Castellet i la Gornal)",
					"Absolute_level": 100.25,
					"Percentage_volume_stored": 95.7,
					"volume_stored": 3.58,
					"County": "Alt Penedès",
					"River_basin": "Riu Foix",
					"Province": "Barcelona",
					"lat": 41.2558333,
					"long": 1.6495473,
					"Group": "BB",
					"Uncertainty": 0.0001596997182217202,
					"MeanLong": 41.2558573
				},
				{
					"Day": "2025-01-02T00:00:00.000",
					"Station": "Reservoir of la Baells (Cercs)",
					"Absolute_level": 615.58,
					"Percentage_volume_stored": 59.2,
					"volume_stored": 64.77,
					"County": "Berguedà",
					"River_basin": "Riu Llobregat",
					"Province": "Barcelona",
					"lat": 42.1488357,
					"long": 1.8545644,
					"Group": "CC",
					"Uncertainty": 0.00008997777503318473,
					"MeanLong": 42.1488177
				},
				{
					"Day": "2025-01-02T00:00:00.000",
					"Station": "Reservoir of la Llosa del Cavall (Navàs)",
					"Absolute_level": 780.78,
					"Percentage_volume_stored": 35.2,
					"volume_stored": 28.13,
					"County": "Solsonès",
					"River_basin": "Riu Cardener",
					"Province": "Lleida",
					"lat": 42.1189975,
					"long": 1.5882915,
					"Group": "YY",
					"Uncertainty": 0.0003628590176170624,
					"MeanLong": 42.118747500000005
				},
				{
					"Day": "2025-01-02T00:00:00.000",
					"Station": "Reservoir of Riudecanyes",
					"Absolute_level": 205.2,
					"Percentage_volume_stored": 23.2,
					"volume_stored": 1.24,
					"County": "Baix Camp",
					"River_basin": "Riera Riudecanyes",
					"Province": "Tarragona",
					"lat": 41.1376102,
					"long": 0.9312787,
					"Group": "DD",
					"Uncertainty": 0.000019798989873514532,
					"MeanLong": 41.1376182
				},
				{
					"Day": "2025-01-02T00:00:00.000",
					"Station": "Reservoir of Sant Ponç (Clariana de Cardener)",
					"Absolute_level": 519.78,
					"Percentage_volume_stored": 50.8,
					"volume_stored": 12.38,
					"County": "Solsonès",
					"River_basin": "Riu Cardener",
					"Province": "Lleida",
					"lat": 41.982852,
					"long": 1.570083,
					"Group": "EE",
					"Uncertainty": 0.000001788854381058258,
					"MeanLong": 41.982853399999996
				},
				{
					"Day": "2025-01-02T00:00:00.000",
					"Station": "Reservoir of Sau (Vilanova de Sau)",
					"Absolute_level": 387.86,
					"Percentage_volume_stored": 15.6,
					"volume_stored": 25.85,
					"County": "Osona",
					"River_basin": "Riu Ter",
					"Province": "Barcelona",
					"lat": 41.9764581,
					"long": 2.3690199,
					"Group": "FF",
					"Uncertainty": 0.000008337865434244848,
					"MeanLong": 41.97645630000001
				},
				{
					"Day": "2025-01-02T00:00:00.000",
					"Station": "Reservoir of Siurana (Cornudella de Montsant)",
					"Absolute_level": 460.17,
					"Percentage_volume_stored": 9.7,
					"volume_stored": 1.18,
					"County": "Priorat",
					"River_basin": "Riu Siurana",
					"Province": "Tarragona",
					"lat": 41.254225,
					"long": 0.9128953,
					"Group": "ZZ",
					"Uncertainty": 0.0003902990306592777,
					"MeanLong": 41.254475
				},
				{
					"Day": "2025-01-02T00:00:00.000",
					"Station": "Reservoir of Susqueda (Osor)",
					"Absolute_level": 316.04,
					"Percentage_volume_stored": 36.3,
					"volume_stored": 84.68,
					"County": "La Selva",
					"River_basin": "Riu Ter",
					"Province": "Girona",
					"lat": 41.9787375,
					"long": 2.4527494,
					"Group": "AA",
					"Uncertainty": 0.00010341394705034961,
					"MeanLong": 41.978719166666664
				},
				{
					"Day": "2025-01-03T00:00:00.000",
					"Station": "Reservoir of Darnius Boadella (Darnius)",
					"Absolute_level": 136.31,
					"Percentage_volume_stored": 17.7,
					"volume_stored": 10.79,
					"County": "Alt Empordà",
					"River_basin": "Riu Muga",
					"Province": "Girona",
					"lat": 42.3461727,
					"long": 2.7814115,
					"Group": "XX",
					"Uncertainty": 0.0039407063664609575,
					"MeanLong": 42.3466727
				},
				{
					"Day": "2025-01-03T00:00:00.000",
					"Station": "Reservoir of Foix (Castellet i la Gornal)",
					"Absolute_level": 100.23,
					"Percentage_volume_stored": 95.4,
					"volume_stored": 3.57,
					"County": "Alt Penedès",
					"River_basin": "Riu Foix",
					"Province": "Barcelona",
					"lat": 41.2558533,
					"long": 1.6496473,
					"Group": "BB",
					"Uncertainty": 0.0001596997182217202,
					"MeanLong": 41.2558573
				},
				{
					"Day": "2025-01-03T00:00:00.000",
					"Station": "Reservoir of la Baells (Cercs)",
					"Absolute_level": 615.54,
					"Percentage_volume_stored": 59.1,
					"volume_stored": 64.66,
					"County": "Berguedà",
					"River_basin": "Riu Llobregat",
					"Province": "Barcelona",
					"lat": 42.1488357,
					"long": 1.8546644,
					"Group": "CC",
					"Uncertainty": 0.00008997777503318473,
					"MeanLong": 42.1488177
				},
				{
					"Day": "2025-01-03T00:00:00.000",
					"Station": "Reservoir of la Llosa del Cavall (Navàs)",
					"Absolute_level": 780.76,
					"Percentage_volume_stored": 35.1,
					"volume_stored": 28.12,
					"County": "Solsonès",
					"River_basin": "Riu Cardener",
					"Province": "Lleida",
					"lat": 42.1187975,
					"long": 1.5883915,
					"Group": "YY",
					"Uncertainty": 0.0003628590176170624,
					"MeanLong": 42.118747500000005
				},
				{
					"Day": "2025-01-03T00:00:00.000",
					"Station": "Reservoir of Riudecanyes",
					"Absolute_level": 205.21,
					"Percentage_volume_stored": 23.3,
					"volume_stored": 1.24,
					"County": "Baix Camp",
					"River_basin": "Riera Riudecanyes",
					"Province": "Tarragona",
					"lat": 41.1376302,
					"long": 0.9312787,
					"Group": "DD",
					"Uncertainty": 0.000019798989873514532,
					"MeanLong": 41.1376182
				},
				{
					"Day": "2025-01-03T00:00:00.000",
					"Station": "Reservoir of Sant Ponç (Clariana de Cardener)",
					"Absolute_level": 519.81,
					"Percentage_volume_stored": 50.9,
					"volume_stored": 12.4,
					"County": "Solsonès",
					"River_basin": "Riu Cardener",
					"Province": "Lleida",
					"lat": 41.982852,
					"long": 1.570084,
					"Group": "EE",
					"Uncertainty": 0.000001788854381058258,
					"MeanLong": 41.982853399999996
				},
				{
					"Day": "2025-01-03T00:00:00.000",
					"Station": "Reservoir of Sau (Vilanova de Sau)",
					"Absolute_level": 387.83,
					"Percentage_volume_stored": 15.6,
					"volume_stored": 25.79,
					"County": "Osona",
					"River_basin": "Riu Ter",
					"Province": "Barcelona",
					"lat": 41.9764561,
					"long": 2.3690169,
					"Group": "FF",
					"Uncertainty": 0.000008337865434244848,
					"MeanLong": 41.97645630000001
				},
				{
					"Day": "2025-01-03T00:00:00.000",
					"Station": "Reservoir of Siurana (Cornudella de Montsant)",
					"Absolute_level": 460.18,
					"Percentage_volume_stored": 9.7,
					"volume_stored": 1.18,
					"County": "Priorat",
					"River_basin": "Riu Siurana",
					"Province": "Tarragona",
					"lat": 41.254525,
					"long": 0.9125953,
					"Group": "ZZ",
					"Uncertainty": 0.0003902990306592777,
					"MeanLong": 41.254475
				},
				{
					"Day": "2025-01-03T00:00:00.000",
					"Station": "Reservoir of Susqueda (Osor)",
					"Absolute_level": 316,
					"Percentage_volume_stored": 36.3,
					"volume_stored": 84.57,
					"County": "La Selva",
					"River_basin": "Riu Ter",
					"Province": "Girona",
					"lat": 41.9787375,
					"long": 2.4526494,
					"Group": "AA",
					"Uncertainty": 0.00010341394705034961,
					"MeanLong": 41.978719166666664
				},
				{
					"Day": "2025-01-04T00:00:00.000",
					"Station": "Reservoir of Darnius Boadella (Darnius)",
					"Absolute_level": 136.3,
					"Percentage_volume_stored": 17.6,
					"volume_stored": 10.77,
					"County": "Alt Empordà",
					"River_basin": "Riu Muga",
					"Province": "Girona",
					"lat": 42.3451727,
					"long": 2.7714115,
					"Group": "XX",
					"Uncertainty": 0.0039407063664609575,
					"MeanLong": 42.3466727
				},
				{
					"Day": "2025-01-04T00:00:00.000",
					"Station": "Reservoir of Foix (Castellet i la Gornal)",
					"Absolute_level": 100.22,
					"Percentage_volume_stored": 95.2,
					"volume_stored": 3.56,
					"County": "Alt Penedès",
					"River_basin": "Riu Foix",
					"Province": "Barcelona",
					"lat": 41.2559333,
					"long": 1.6496473,
					"Group": "BB",
					"Uncertainty": 0.0001596997182217202,
					"MeanLong": 41.2558573
				},
				{
					"Day": "2025-01-04T00:00:00.000",
					"Station": "Reservoir of la Baells (Cercs)",
					"Absolute_level": 615.5,
					"Percentage_volume_stored": 59,
					"volume_stored": 64.55,
					"County": "Berguedà",
					"River_basin": "Riu Llobregat",
					"Province": "Barcelona",
					"lat": 42.1488457,
					"long": 1.8544644,
					"Group": "CC",
					"Uncertainty": 0.00008997777503318473,
					"MeanLong": 42.1488177
				},
				{
					"Day": "2025-01-04T00:00:00.000",
					"Station": "Reservoir of la Llosa del Cavall (Navàs)",
					"Absolute_level": 780.75,
					"Percentage_volume_stored": 35.1,
					"volume_stored": 28.09,
					"County": "Solsonès",
					"River_basin": "Riu Cardener",
					"Province": "Lleida",
					"lat": 42.1189975,
					"long": 1.5881915,
					"Group": "YY",
					"Uncertainty": 0.0003628590176170624,
					"MeanLong": 42.118747500000005
				},
				{
					"Day": "2025-01-04T00:00:00.000",
					"Station": "Reservoir of Riudecanyes",
					"Absolute_level": 205.21,
					"Percentage_volume_stored": 23.3,
					"volume_stored": 1.24,
					"County": "Baix Camp",
					"River_basin": "Riera Riudecanyes",
					"Province": "Tarragona",
					"lat": 41.1376002,
					"long": 0.9312687,
					"Group": "DD",
					"Uncertainty": 0.000019798989873514532,
					"MeanLong": 41.1376182
				},
				{
					"Day": "2025-01-04T00:00:00.000",
					"Station": "Reservoir of Sant Ponç (Clariana de Cardener)",
					"Absolute_level": 519.83,
					"Percentage_volume_stored": 51,
					"volume_stored": 12.42,
					"County": "Solsonès",
					"River_basin": "Riu Cardener",
					"Province": "Lleida",
					"lat": 41.982855,
					"long": 1.570083,
					"Group": "EE",
					"Uncertainty": 0.000001788854381058258,
					"MeanLong": 41.982853399999996
				},
				{
					"Day": "2025-01-04T00:00:00.000",
					"Station": "Reservoir of Sau (Vilanova de Sau)",
					"Absolute_level": 387.71,
					"Percentage_volume_stored": 15.5,
					"volume_stored": 25.55,
					"County": "Osona",
					"River_basin": "Riu Ter",
					"Province": "Barcelona",
					"lat": 41.9764531,
					"long": 2.3690189,
					"Group": "FF",
					"Uncertainty": 0.000008337865434244848,
					"MeanLong": 41.97645630000001
				},
				{
					"Day": "2025-01-04T00:00:00.000",
					"Station": "Reservoir of Siurana (Cornudella de Montsant)",
					"Absolute_level": 460.18,
					"Percentage_volume_stored": 9.7,
					"volume_stored": 1.18,
					"County": "Priorat",
					"River_basin": "Riu Siurana",
					"Province": "Tarragona",
					"lat": 41.254525,
					"long": 0.9129953,
					"Group": "ZZ",
					"Uncertainty": 0.0003902990306592777,
					"MeanLong": 41.254475
				},
				{
					"Day": "2025-01-04T00:00:00.000",
					"Station": "Reservoir of Susqueda (Osor)",
					"Absolute_level": 316.01,
					"Percentage_volume_stored": 36.3,
					"volume_stored": 84.62,
					"County": "La Selva",
					"River_basin": "Riu Ter",
					"Province": "Girona",
					"lat": 41.9787275,
					"long": 2.4528494,
					"Group": "AA",
					"Uncertainty": 0.00010341394705034961,
					"MeanLong": 41.978719166666664
				},
				{
					"Day": "2025-01-05T00:00:00.000",
					"Station": "Reservoir of Darnius Boadella (Darnius)",
					"Absolute_level": 136.28,
					"Percentage_volume_stored": 17.6,
					"volume_stored": 10.75,
					"County": "Alt Empordà",
					"River_basin": "Riu Muga",
					"Province": "Girona",
					"lat": 42.3461727,
					"long": 2.7713115,
					"Group": "XX",
					"Uncertainty": 0.0039407063664609575,
					"MeanLong": 42.3466727
				},
				{
					"Day": "2025-01-05T00:00:00.000",
					"Station": "Reservoir of Foix (Castellet i la Gornal)",
					"Absolute_level": 100.22,
					"Percentage_volume_stored": 95.2,
					"volume_stored": 3.56,
					"County": "Alt Penedès",
					"River_basin": "Riu Foix",
					"Province": "Barcelona",
					"lat": 41.2558333,
					"long": 1.6492473,
					"Group": "BB",
					"Uncertainty": 0.0001596997182217202,
					"MeanLong": 41.2558573
				},
				{
					"Day": "2025-01-05T00:00:00.000",
					"Station": "Reservoir of la Baells (Cercs)",
					"Absolute_level": 615.46,
					"Percentage_volume_stored": 58.9,
					"volume_stored": 64.45,
					"County": "Berguedà",
					"River_basin": "Riu Llobregat",
					"Province": "Barcelona",
					"lat": 42.1487357,
					"long": 1.8544644,
					"Group": "CC",
					"Uncertainty": 0.00008997777503318473,
					"MeanLong": 42.1488177
				},
				{
					"Day": "2025-01-05T00:00:00.000",
					"Station": "Reservoir of la Llosa del Cavall (Navàs)",
					"Absolute_level": 780.73,
					"Percentage_volume_stored": 35.1,
					"volume_stored": 28.07,
					"County": "Solsonès",
					"River_basin": "Riu Cardener",
					"Province": "Lleida",
					"lat": 42.1186975,
					"long": 1.5883915,
					"Group": "YY",
					"Uncertainty": 0.0003628590176170624,
					"MeanLong": 42.118747500000005
				},
				{
					"Day": "2025-01-05T00:00:00.000",
					"Station": "Reservoir of Riudecanyes",
					"Absolute_level": 205.22,
					"Percentage_volume_stored": 23.3,
					"volume_stored": 1.24,
					"County": "Baix Camp",
					"River_basin": "Riera Riudecanyes",
					"Province": "Tarragona",
					"lat": 41.1376502,
					"long": 0.9312787,
					"Group": "DD",
					"Uncertainty": 0.000019798989873514532,
					"MeanLong": 41.1376182
				},
				{
					"Day": "2025-01-05T00:00:00.000",
					"Station": "Reservoir of Sant Ponç (Clariana de Cardener)",
					"Absolute_level": 519.86,
					"Percentage_volume_stored": 51.1,
					"volume_stored": 12.45,
					"County": "Solsonès",
					"River_basin": "Riu Cardener",
					"Province": "Lleida",
					"lat": 41.982856,
					"long": 1.570083,
					"Group": "EE",
					"Uncertainty": 0.000001788854381058258,
					"MeanLong": 41.982853399999996
				},
				{
					"Day": "2025-01-05T00:00:00.000",
					"Station": "Reservoir of Sau (Vilanova de Sau)",
					"Absolute_level": 387.61,
					"Percentage_volume_stored": 15.3,
					"volume_stored": 25.35,
					"County": "Osona",
					"River_basin": "Riu Ter",
					"Province": "Barcelona",
					"lat": 41.9764571,
					"long": 2.3690389,
					"Group": "FF",
					"Uncertainty": 0.000008337865434244848,
					"MeanLong": 41.97645630000001
				},
				{
					"Day": "2025-01-05T00:00:00.000",
					"Station": "Reservoir of Siurana (Cornudella de Montsant)",
					"Absolute_level": 460.18,
					"Percentage_volume_stored": 9.7,
					"volume_stored": 1.18,
					"County": "Priorat",
					"River_basin": "Riu Siurana",
					"Province": "Tarragona",
					"lat": 41.254525,
					"long": 0.9128353,
					"Group": "ZZ",
					"Uncertainty": 0.0003902990306592777,
					"MeanLong": 41.254475
				},
				{
					"Day": "2025-01-05T00:00:00.000",
					"Station": "Reservoir of Susqueda (Osor)",
					"Absolute_level": 316.05,
					"Percentage_volume_stored": 36.4,
					"volume_stored": 84.72,
					"County": "La Selva",
					"River_basin": "Riu Ter",
					"Province": "Girona",
					"lat": 41.9787375,
					"long": 2.4529594,
					"Group": "AA",
					"Uncertainty": 0.00010341394705034961,
					"MeanLong": 41.978719166666664
				}
			],
			"x": 111,
			"y": 8
		}
	],
	"edges": [
		{
			"from": "8bpf0.tqecjc",
			"to": "75h1u.n97tfg",
			"arrows": "from"
		},
		{
			"from": "781t9.gma54j",
			"to": "1pup2.l9og138",
			"arrows": "from"
		},
		{
			"from": "781t9.gma54j",
			"to": "3c90g.g7h135g",
			"arrows": "from"
		},
		{
			"from": "2hsof.0qmn5t",
			"to": "3c90g.g7h135g",
			"arrows": "from"
		},
		{
			"from": "43lno.1mof62",
			"to": "3c90g.g7h135g",
			"arrows": "from"
		}
	]
}